City_ID,City,Lat,Lng,Max Temp,Humidity,Cloudiness,Wind Speed,Country,Date
0,spearfish,44.4908,-103.8594,20.49,68,0,2.57,US,1724598609
1,afaahiti,-17.75,-149.2833,22.41,80,100,10.47,PF,1724598611
2,cabo san lucas,22.8909,-109.9124,30.42,57,40,8.75,MX,1724598612
3,howard springs,-12.497,131.047,26.95,83,0,1.3,AU,1724598613
4,lata,40.1629,-8.3327,26.94,49,0,6.19,PT,1724598614
5,uturoa,-16.7333,-151.4333,25.2,76,100,11.12,PF,1724598613
6,grytviken,-54.2811,-36.5092,-3.27,74,21,5.69,GS,1724598343
7,sunbury,-37.5833,144.7333,11.92,74,20,4.63,AU,1724598326
8,blackmans bay,-43.0167,147.3167,10.85,89,100,0.45,AU,1724598434
9,fortuna,40.5982,-124.1573,11.51,100,75,3.09,US,1724598585
10,kailua-kona,19.6406,-155.9956,23.98,99,75,4.12,US,1724598622
11,tazovsky,67.4667,78.7,10.95,73,19,1.7,RU,1724598623
12,talnakh,69.4865,88.3972,12.29,75,99,2.09,RU,1724598414
13,new norfolk,-42.7826,147.0587,11.51,93,69,1.62,AU,1724598625
14,ushuaia,-54.8,-68.3,6.81,70,75,2.57,AR,1724598075
15,luderitz,-26.6481,15.1594,17.5,61,0,8.23,NA,1724598425
16,nadym,65.5333,72.5167,14.03,71,23,2.36,RU,1724598487
17,al burayqah,30.4062,19.5739,28.86,72,0,8.54,LY,1724598629
18,port lincoln,-34.7333,135.8667,13.62,87,25,6.97,AU,1724598630
19,daru,-9.0763,143.2092,24.79,85,79,7.88,PG,1724598579
20,yemel'yanovo,56.1681,92.6767,17.45,100,40,1.0,RU,1724598632
21,waitangi,-43.9535,-176.5597,11.01,95,100,2.68,NZ,1724598633
22,albany,42.6001,-73.9662,23.13,78,71,0.89,US,1724598451
23,rawai,7.7797,98.3253,28.88,79,100,5.68,TH,1724598635
24,papatowai,-46.5619,169.4708,3.4,86,10,1.06,NZ,1724598342
25,edinburgh of the seven seas,-37.0676,-12.3116,10.95,72,74,9.63,SH,1724598637
26,ust-nera,64.5667,143.2,13.4,73,97,2.83,RU,1724598413
27,adamstown,-25.066,-130.1015,20.54,76,100,9.77,PN,1724598639
28,fale old settlement,-9.3852,-171.2468,27.91,74,8,6.73,TK,1724598440
29,port blair,11.6667,92.75,27.02,89,40,1.03,IN,1724598642
30,bredasdorp,-34.5322,20.0403,17.31,57,97,2.25,ZA,1724598465
31,port saint john's,-31.6229,29.5448,18.46,77,100,3.31,ZA,1724598578
32,mogocha,53.7333,119.7667,10.06,97,54,2.19,RU,1724598646
33,ilulissat,69.2167,-51.1,4.01,100,75,4.63,GL,1724598397
34,tura,25.5198,90.2201,24.77,88,15,3.02,IN,1724598497
35,son la,21.3167,103.9,20.63,98,100,0.88,VN,1724598649
36,olonkinbyen,70.9221,-8.7187,3.7,97,100,9.65,SJ,1724598168
37,smithers,54.7804,-127.1743,11.49,78,100,1.0,CA,1724598652
38,east london,-33.0153,27.9116,18.52,77,75,5.66,ZA,1724598317
39,carolina beach,34.0352,-77.8936,26.72,84,83,5.92,US,1724598356
40,puerto colombia,10.9878,-74.9547,28.05,79,100,3.47,CO,1724598655
41,port-aux-francais,-49.35,70.2167,3.63,89,79,14.59,TF,1724598656
42,dryden,49.7833,-92.7503,24.72,64,57,4.92,CA,1724598657
43,baharly,38.4362,57.4316,36.24,14,2,3.43,TM,1724598658
44,puerto natales,-51.7236,-72.4875,4.25,87,75,1.03,CL,1724598464
45,anadyr,64.75,177.4833,6.28,70,40,7.0,RU,1724598391
46,iskateley,67.6803,53.1512,14.78,82,77,3.64,RU,1724598662
47,gadzhiyevo,69.2551,33.3362,16.99,52,91,8.98,RU,1724598378
48,longyearbyen,78.2186,15.6401,9.91,76,75,9.77,SJ,1724598347
49,talara,-4.5772,-81.2719,20.42,77,0,5.66,PE,1724598665
50,shakawe,-18.3667,21.85,31.28,9,0,3.31,BW,1724598666
51,lihue,21.9789,-159.3672,24.77,89,100,10.29,US,1724598589
52,ribeira grande,38.5167,-28.7,23.76,94,75,1.54,PT,1724598668
53,portarlington,53.1622,-7.1911,15.58,81,94,8.05,IE,1724598669
54,richards bay,-28.783,32.0377,20.83,70,36,4.17,ZA,1724598480
55,san patricio,28.017,-97.5169,30.97,55,0,3.61,US,1724598672
56,bridgewater,44.3835,-64.5155,27.28,59,8,1.79,CA,1724598673
57,damghan,36.1683,54.348,32.8,12,59,4.76,IR,1724598674
58,plettenberg bay,-34.0527,23.3716,16.2,64,20,2.52,ZA,1724598675
59,ghanzi,-21.5667,21.7833,29.09,10,0,2.09,BW,1724598676
60,thompson,55.7435,-97.8558,22.29,79,80,3.95,CA,1724598677
61,constantia,44.1833,28.65,30.38,71,0,6.21,RO,1724598496
62,punta arenas,-53.15,-70.9167,5.06,87,100,3.09,CL,1724598388
63,isafjordur,66.0755,-23.124,6.02,87,100,5.66,IS,1724598525
64,margate,51.3813,1.3862,20.39,53,58,1.34,GB,1724598682
65,crane,31.3974,-102.3501,27.49,52,2,7.24,US,1724598683
66,wotho,10.1657,166.0102,27.56,80,100,4.28,MH,1724598684
67,loushanguan,28.1375,106.82,22.38,84,22,1.93,CN,1724598685
68,coroata,-4.13,-44.1242,36.39,31,29,1.95,BR,1724598686
69,linxia chengguanzhen,35.6003,103.2064,16.41,90,100,1.53,CN,1724598687
70,kayangel,8.0823,134.7173,28.06,74,100,3.49,PW,1724598688
71,herceg novi,42.4531,18.5375,34.49,55,0,0.51,ME,1724598689
72,thinadhoo,0.5333,72.9333,28.11,75,100,3.93,MV,1724598692
73,bethel,41.3712,-73.414,26.06,69,0,0.0,US,1724598504
74,stanley,54.868,-1.6985,15.01,81,75,7.2,GB,1724598370
75,maintirano,-18.0667,44.0167,24.71,69,7,6.09,MG,1724598695
76,flying fish cove,-10.4217,105.6791,24.82,83,100,6.69,CX,1724598400
77,petropavlovsk-kamchatsky,53.0452,158.6483,10.68,85,100,5.21,RU,1724598457
78,carnarvon,-24.8667,113.6333,19.03,75,19,7.29,AU,1724598574
79,simcoe,42.8334,-80.2997,24.31,50,0,0.76,CA,1724598701
80,lerwick,60.1545,-1.1494,12.15,83,100,8.08,GB,1724598702
81,yellowknife,62.456,-114.3525,15.23,74,99,2.24,CA,1724598703
82,tamandare,-8.7597,-35.1047,26.51,60,25,5.31,BR,1724598704
83,ketchikan,55.3422,-131.6461,13.26,88,100,7.2,US,1724598705
84,mabaruma,8.2,-59.7833,33.5,49,98,1.75,GY,1724598706
85,hawaiian paradise park,19.5933,-154.9731,24.94,99,100,6.69,US,1724598384
86,college,64.8569,-147.8028,4.39,92,75,2.06,US,1724598458
87,tapa,59.2606,25.9586,27.63,45,25,5.62,EE,1724598710
88,west island,-12.1568,96.8225,26.99,89,20,6.17,CC,1724598553
89,suntar,62.1444,117.6319,11.95,86,19,2.51,RU,1724598712
90,kulhudhuffushi,6.6221,73.07,27.76,76,100,3.53,MV,1724598713
91,buon ma thuot,12.6667,108.05,21.89,98,100,1.47,VN,1724598633
92,lecheng,25.1238,113.3254,26.32,89,81,0.53,CN,1724598715
93,broome,42.2506,-75.833,24.81,64,0,0.45,US,1724598531
94,visby,57.6409,18.296,20.58,68,0,8.23,SE,1724598718
95,susuman,62.7833,148.1667,12.26,60,100,2.05,RU,1724598576
96,alice springs,-23.7,133.8833,18.75,48,33,0.0,AU,1724598720
97,gulf shores,30.246,-87.7008,28.89,70,7,3.13,US,1724598546
98,puerto leguizamo,-0.1934,-74.7819,31.97,53,48,1.11,CO,1724598722
99,aasiaat,68.7098,-52.8699,2.75,93,100,2.65,GL,1724598530
100,mili,6.0815,171.735,27.95,77,88,3.57,MH,1724598724
101,caleta de carquin,-11.0925,-77.6267,18.7,77,46,3.63,PE,1724598725
102,margaret river,-33.95,115.0667,16.14,79,69,7.3,AU,1724598348
103,nikolayevsk-on-amure,53.1406,140.73,13.73,76,97,1.52,RU,1724598387
104,hamilton,39.1834,-84.5333,30.97,60,0,3.6,US,1724598728
105,laojunmiao,39.8333,97.7333,18.47,66,7,5.74,CN,1724598612
106,ryotsu-minato,38.0833,138.4333,24.51,89,66,1.08,JP,1724598730
107,san luis de la loma,17.2706,-100.8939,28.67,73,2,0.06,MX,1724598731
108,kodiak,57.79,-152.4072,7.84,80,21,4.96,US,1724598131
109,grand forks,47.9417,-97.4337,27.85,74,40,7.2,US,1724598355
110,surami,42.0243,43.5556,18.5,93,100,2.17,GE,1724598735
111,mejit,10.2753,170.8646,28.29,78,100,6.11,MH,1724598509
112,fort bragg,35.139,-79.006,26.62,64,0,2.24,US,1724598446
113,marica,-22.9194,-42.8186,20.47,86,99,6.41,BR,1724598738
114,monticello,45.3055,-93.7941,25.68,87,100,3.09,US,1724598519
115,loiza,18.4313,-65.8802,32.17,70,40,5.14,PR,1724598741
116,sinabang,2.4803,96.3801,25.61,82,100,0.11,ID,1724598401
117,bamboo flat,11.7,92.7167,27.05,89,40,1.03,IN,1724598563
118,vorgashor,67.5833,63.95,15.04,69,99,3.17,RU,1724598362
119,inhambane,-23.865,35.3833,21.79,62,0,4.43,MZ,1724598746
120,alamosa,37.4695,-105.87,14.99,72,0,1.54,US,1724598747
121,khorixas,-20.3667,14.9667,32.19,7,0,1.9,NA,1724598748
122,chinde,26.8212,87.7095,25.06,92,44,1.32,NP,1724598749
123,walvis bay,-22.9575,14.5053,18.61,56,22,7.13,NA,1724598750
124,invercargill,-46.4,168.35,3.34,95,70,1.41,NZ,1724598514
125,utrik,11.2278,169.8474,28.44,81,98,7.87,MH,1724598450
126,loango,-4.6719,11.8312,23.9,74,31,4.75,CG,1724598755
127,cannonvale,-20.2833,148.7,20.66,81,78,4.24,AU,1724598756
128,la barceloneta,41.3807,2.1899,29.19,51,40,5.14,ES,1724598757
129,trairi,-3.2778,-39.2689,30.78,46,11,7.42,BR,1724598758
130,rey bouba,8.6724,14.1786,22.34,97,100,3.82,CM,1724598759
131,mahdia,35.5047,11.0622,31.38,46,0,6.06,TN,1724598760
132,st. john's,47.5649,-52.7093,23.97,68,20,6.17,CA,1724598360
133,haiku-pauwela,20.9219,-156.3051,24.57,94,100,9.39,US,1724598408
134,rongelap,11.1635,166.8941,28.22,78,100,4.6,MH,1724598763
135,benguela,-12.5763,13.4055,22.71,71,44,4.28,AO,1724598764
136,khabarovsk,48.4808,135.0928,17.89,88,20,3.0,RU,1724598765
137,dwarka,22.2394,68.9678,27.73,80,100,7.11,IN,1724598766
138,san julian,21.0167,-102.1667,17.22,76,2,3.19,MX,1724598767
139,freetown,8.484,-13.2299,25.01,90,100,5.64,SL,1724598768
140,port hueneme,34.1478,-119.1951,20.79,73,0,1.54,US,1724598563
141,madinat ash shamal,26.1293,51.2009,34.86,63,0,2.74,QA,1724598771
142,urangan,-25.3,152.9,20.04,83,0,2.75,AU,1724598772
143,iqaluit,63.7506,-68.5145,5.85,81,75,1.03,CA,1724598074
144,jamestown,42.097,-79.2353,25.01,61,20,1.54,US,1724598774
145,saldanha,-33.0117,17.9442,14.35,68,61,5.94,ZA,1724598775
146,san justo,-30.7891,-60.5919,12.77,53,0,2.68,AR,1724598776
147,keflavik,64.0049,-22.5624,9.24,71,75,7.2,IS,1724598777
148,nazca,-14.8333,-74.95,24.11,29,1,2.35,PE,1724598778
149,lebu,-37.6167,-73.65,10.76,58,99,2.01,CL,1724598484
150,port mathurin,-19.6833,63.4167,21.59,62,98,12.55,MU,1724598780
151,nagqu,31.5,92.0,6.62,70,24,2.12,CN,1724598448
152,kalnibolotskaya,46.0058,40.4568,30.54,19,27,7.27,RU,1724598782
153,apsheronsk,44.46,39.73,29.82,38,30,6.08,RU,1724598783
154,arraial do cabo,-22.9661,-42.0278,22.92,78,100,6.69,BR,1724598784
155,moussoro,13.6408,16.4901,28.63,62,100,5.38,TD,1724598785
156,fuglafjordur,62.244,-6.814,10.07,74,98,4.32,FO,1724598690
157,chifeng,42.2683,118.9636,20.41,65,100,0.11,CN,1724598787
158,vrontados,38.4089,26.1328,30.92,40,0,5.14,GR,1724598789
159,castillos,-34.1667,-53.8333,9.47,77,100,7.07,UY,1724598426
160,praia da vitoria,38.7333,-27.0667,26.53,70,100,2.39,PT,1724598603
161,hadibu,12.65,54.0333,28.2,68,65,6.48,YE,1724598529
162,vila franca do campo,37.7167,-25.4333,26.23,52,92,0.88,PT,1724598475
163,alotau,-10.3069,150.4462,21.1,94,98,1.67,PG,1724598794
164,georgetown,5.4112,100.3354,27.96,69,20,1.03,MY,1724598591
165,luba,3.4568,8.5547,25.43,85,100,3.11,GQ,1724598796
166,puerto baquerizo moreno,-0.9,-89.6,21.55,78,40,7.2,EC,1724598573
167,lazaro cardenas,17.9583,-102.2,27.92,80,12,1.52,MX,1724598798
168,massakory,12.996,15.7293,25.26,79,100,5.63,TD,1724598799
169,pedley,33.9753,-117.4759,20.64,68,0,1.54,US,1724598800
170,charters towers,-20.1,146.2667,16.0,92,0,3.74,AU,1724598801
171,laguna,38.421,-121.4238,16.17,83,0,2.06,US,1724598802
172,as samawah,31.332,45.2944,46.46,7,0,2.58,IQ,1724598803
173,port douglas,-16.4833,145.4667,22.4,69,97,4.69,AU,1724598804
174,san antonio de pale,-1.4014,5.6325,24.2,78,40,4.47,GQ,1724598473
175,masterton,-40.9597,175.6575,11.56,77,100,4.93,NZ,1724598806
176,adazi,57.0758,24.3214,30.01,46,30,4.28,LV,1724598808
177,el nido,11.1858,119.3956,27.3,89,97,4.07,PH,1724598645
178,klyuchi,52.2667,79.1667,14.67,77,94,6.59,RU,1724598452
179,murzuq,25.9155,13.9184,39.44,18,0,5.24,LY,1724598812
180,tindouf,27.6711,-8.1474,42.63,12,0,3.72,DZ,1724598813
181,hermanus,-34.4187,19.2345,17.67,69,100,7.27,ZA,1724598584
182,kaintragarh,20.7167,84.5333,25.08,92,91,0.89,IN,1724598816
183,labasa,-16.4167,179.3833,23.46,88,100,3.13,FJ,1724598817
184,pisco,-13.7,-76.2167,18.34,72,23,2.57,PE,1724598818
185,hastings,50.8552,0.5729,18.86,66,44,9.99,GB,1724598819
186,weno,7.4515,151.8468,28.18,74,100,3.32,FM,1724598820
187,simanggang,1.2472,111.4528,23.64,98,100,0.62,MY,1724598821
188,sault ste. marie,46.5168,-84.3333,22.16,78,0,2.06,CA,1724598822
189,tiksi,71.6872,128.8694,3.96,93,100,4.31,RU,1724598385
190,udachny,66.4167,112.4,9.82,89,100,4.83,RU,1724598463
191,usogorsk,63.4106,48.6872,19.47,54,14,2.48,RU,1724598826
192,damaturu,11.747,11.9608,22.59,83,100,6.1,NG,1724598827
193,albatera,38.179,-0.8706,30.98,66,8,2.68,ES,1724598828
194,bardai,11.65,7.2333,27.77,65,100,5.44,NG,1724598829
195,enewetak,11.3474,162.3373,28.6,70,69,5.19,MH,1724598492
196,hithadhoo,-0.6,73.0833,27.99,75,100,3.59,MV,1724598447
197,khromtau,50.2503,58.4347,18.26,59,100,3.78,KZ,1724598832
198,qarauyl,48.9451,79.255,14.92,52,10,3.79,KZ,1724598834
199,yako,12.9667,-2.2667,30.29,57,93,3.49,BF,1724598608
200,bumba,2.1833,22.4667,28.64,60,99,0.82,CD,1724598836
201,ciudad melchor muzquiz,27.8833,-101.5167,26.67,71,10,2.31,MX,1724598837
202,villamontes,-21.25,-63.5,13.1,32,100,2.34,BO,1724598839
203,antofagasta,-23.65,-70.4,18.6,65,41,2.36,CL,1724598695
204,dudinka,69.4058,86.1778,11.95,78,100,0.77,RU,1724598396
205,fredericton,45.9454,-66.6656,26.02,66,21,2.35,CA,1724598842
206,atafu village,-8.5421,-172.5159,28.18,71,16,8.28,TK,1724598608
207,al minya,28.1099,30.7503,38.86,15,0,4.6,EG,1724598844
208,puerto ayora,-0.7393,-90.3518,20.31,92,54,2.68,EC,1724598272
209,tshela,-4.9833,12.9333,33.74,35,21,2.57,CD,1724598847
210,karratha,-20.7377,116.8463,24.33,39,1,4.01,AU,1724598848
211,joshimath,30.5667,79.5667,17.37,78,49,2.28,IN,1724598849
212,wailua homesteads,22.0669,-159.378,24.44,89,100,10.29,US,1724598850
213,tazacorte,28.629,-17.9293,26.75,76,20,6.69,ES,1724598851
214,nieuw amsterdam,5.8833,-55.0833,32.13,53,75,2.48,SR,1724598852
215,mount isa,-20.7333,139.5,14.87,51,0,0.0,AU,1724598598
216,cherlak,54.155,74.8055,13.08,90,83,6.24,RU,1724598854
217,piti village,13.4626,144.6933,27.39,92,0,0.0,GU,1724598855
218,labrador city,52.9463,-66.9114,23.43,50,69,2.68,CA,1724598856
219,howrah,22.5892,88.3103,27.0,94,100,2.06,IN,1724598858
220,faya-largeau,17.9257,19.1043,38.73,27,48,1.91,TD,1724598859
221,avarua,-21.2078,-159.775,22.03,73,75,6.69,CK,1724598619
222,katsuren-haebaru,26.3369,127.8719,29.01,86,40,0.0,JP,1724598861
223,taoudenni,22.6783,-3.9836,43.43,17,12,1.26,ML,1724598862
224,dubai,25.2582,55.3047,36.96,49,0,3.6,AE,1724598666
225,hotan,37.0997,79.9269,29.14,30,99,2.83,CN,1724598864
226,yanykurgan,43.915,67.2481,22.46,24,35,5.26,KZ,1724598865
227,mantua,45.1667,10.7833,34.43,48,23,1.79,IT,1724598866
228,ulysses,37.5814,-101.3552,29.02,37,0,3.09,US,1724598867
229,rio grande,-32.035,-52.0986,10.95,66,67,10.37,BR,1724598702
230,wenchang,30.904,118.4887,27.47,74,62,2.57,CN,1724598869
231,swan hill,-35.3378,143.5544,9.48,78,0,4.31,AU,1724598870
232,sao joao da barra,-21.6403,-41.0511,28.05,72,6,7.6,BR,1724598871
233,berezovyy,51.6667,135.7,14.07,82,100,1.08,RU,1724598872
234,alkhan-yurt,43.2318,45.5723,26.96,53,100,5.19,RU,1724598873
235,greymouth,-42.4667,171.2,11.78,95,100,1.75,NZ,1724598874
236,berezovo,63.9381,65.0419,15.13,73,9,2.89,RU,1724598875
237,pervomayskiy,53.2485,40.2871,26.58,38,4,1.24,RU,1724598502
238,tampakan,6.4442,124.9264,24.52,95,100,0.32,PH,1724598878
239,sitka,57.0531,-135.33,13.94,88,100,6.17,US,1724598879
240,nadi,-17.8,177.4167,21.0,83,100,5.14,FJ,1724598880
241,minas de marcona,-15.2119,-75.1103,17.99,41,0,4.17,PE,1724598881
242,sampit,-2.5333,112.95,23.98,89,48,1.34,ID,1724598883
243,buta,2.7858,24.73,27.23,74,100,1.12,CD,1724598884
244,kyaikkami,16.08,97.5675,25.96,87,100,2.96,MM,1724598885
245,little falls,40.869,-74.2082,28.16,60,0,2.06,US,1724598886
246,broken hill,-31.95,141.4333,12.58,61,0,3.09,AU,1724598611
247,tionk essil,12.7856,-16.5217,26.51,82,99,3.15,SN,1724598888
248,nova sintra,14.8667,-24.7167,26.21,79,99,9.1,CV,1724598889
249,whitehorse,60.7161,-135.0538,8.43,90,100,7.2,CA,1724598354
250,phan rang-thap cham,11.5667,108.9833,23.9,91,100,2.22,VN,1724598794
251,arafat,39.0344,44.6198,23.93,30,93,1.48,IR,1724598892
252,san pedro pochutla,15.7333,-96.4667,28.73,66,36,0.74,MX,1724598528
253,kelibia,36.8476,11.0939,29.04,54,0,3.95,TN,1724598894
254,touros,-5.1989,-35.4608,28.89,55,79,8.79,BR,1724598323
255,saint-philippe,-21.3585,55.7679,19.71,76,78,7.87,RE,1724598897
256,el granada,37.5027,-122.4694,17.84,83,20,0.0,US,1724598899
257,jumla,29.2747,82.1838,15.64,90,93,1.87,NP,1724598900
258,banda aceh,5.5577,95.3222,25.82,76,100,2.68,ID,1724598498
259,axim,4.8699,-2.2405,26.69,72,100,4.2,GH,1724598902
260,eureka,40.8021,-124.1637,11.66,96,0,1.12,US,1724598903
261,butiama,-1.7667,33.9667,24.97,41,92,2.17,TZ,1724598904
262,claremont,34.0967,-117.7198,19.79,71,0,1.54,US,1724598904
263,badger,64.8,-147.5333,4.34,93,75,2.06,US,1724598908
264,akcakale,36.7111,38.9475,35.59,26,0,6.0,TR,1724598909
265,filadelfia,39.9523,-75.1638,27.77,57,40,3.6,US,1724598853
266,askino,56.0901,56.5783,14.71,75,9,1.17,RU,1724598911
267,wolfach,48.3,8.2167,22.71,51,72,1.96,DE,1724598913
268,revda,56.801,59.9303,14.29,75,56,2.5,RU,1724598914
269,alofi,-19.0595,-169.9187,22.94,88,100,6.69,NU,1724598376
270,lorengau,-2.0226,147.2712,27.03,83,100,4.29,PG,1724598916
271,kincardine,56.0667,-3.7167,14.15,95,100,8.33,GB,1724598917
272,sungai penuh,-2.0833,101.3833,18.65,95,45,1.63,ID,1724598918
273,neryungri,56.6709,124.6491,11.12,96,100,1.49,RU,1724598919
274,salinopolis,-0.6136,-47.3561,30.09,63,94,5.13,BR,1724598920
275,kota,25.1833,75.8333,25.71,92,97,3.62,IN,1724598921
276,severo-yeniseyskiy,60.3725,93.0408,11.97,98,53,1.73,RU,1724598922
277,ujae,8.9322,165.7642,27.56,80,100,4.1,MH,1724598923
278,vila velha,-20.3297,-40.2925,26.97,67,20,2.06,BR,1724598814
279,vilyuchinsk,52.9306,158.4028,11.73,88,100,4.24,RU,1724598927
280,ennis,52.8436,-8.9864,15.96,72,75,9.77,IE,1724598928
281,brookings,44.3114,-96.7984,24.0,97,100,4.63,US,1724598888
282,kavala,40.9397,24.4019,27.31,65,20,4.12,GR,1724598930
283,sisimiut,66.9395,-53.6735,6.23,71,90,3.72,GL,1724598435
284,nabire,-3.3667,135.4833,24.32,94,100,1.57,ID,1724598932
285,sokoto,13.0609,5.239,33.65,47,77,5.16,NG,1724598933
286,aleksandrovsk-sakhalinskiy,50.8975,142.1561,13.69,87,100,2.87,RU,1724598934
287,vernon,50.2581,-119.2691,15.25,83,59,1.54,CA,1724598935
288,as sulayyil,20.4607,45.5779,38.95,18,81,6.59,SA,1724598936
289,nar'yan-mar,67.6713,53.087,14.73,82,67,3.88,RU,1724598937
290,presidente epitacio,-21.7633,-52.1156,14.14,40,100,4.8,BR,1724598938
291,bilibino,68.0546,166.4372,5.85,80,100,0.76,RU,1724598432
292,san agustin de valle fertil,-30.6335,-67.4682,10.36,33,0,3.95,AR,1724598940
293,nuuk,64.1835,-51.7216,4.34,93,75,4.63,GL,1724598942
294,altusried,47.8,10.2167,16.0,90,100,1.34,DE,1724598943
295,morelia,19.7008,-101.1844,17.52,88,9,1.5,MX,1724598944
296,i-n-salah,27.1935,2.4607,43.03,10,0,7.23,DZ,1724598945
297,riohacha,11.5444,-72.9072,31.45,61,99,2.71,CO,1724598946
298,tralee,52.2704,-9.7026,18.14,72,40,10.8,IE,1724598947
299,playa vicente,17.8333,-95.8167,26.3,84,4,2.28,MX,1724598949
300,la passe,45.5549,-0.8967,21.06,43,1,7.14,FR,1724598950
301,jianguang,28.1938,115.7836,29.33,72,4,0.8,CN,1724598951
302,nemuro,43.3236,145.575,15.6,83,100,4.29,JP,1724598952
303,fisterra,42.9049,-9.2629,19.39,65,7,11.43,ES,1724598953
304,mstsislaw,54.0192,31.7257,26.5,50,0,1.55,BY,1724598954
305,valparaiso,-33.0393,-71.6273,18.04,62,0,3.09,CL,1724598908
306,conde,-7.2597,-34.9075,27.7,65,40,8.23,BR,1724598831
307,carrigaline,51.8117,-8.3986,17.01,77,75,7.72,IE,1724598957
308,kihoku-cho,33.2559,132.6834,23.63,95,16,1.86,JP,1724598959
309,newnham,-41.3833,147.1333,10.53,93,75,6.17,AU,1724598960
310,mukalla,14.5425,49.1242,33.16,48,32,10.63,YE,1724598961
311,ebon,4.582,168.6964,28.02,73,100,1.31,MH,1724598962
312,mansa,29.9833,75.3833,30.77,65,62,3.0,IN,1724598963
313,ovalle,-30.5983,-71.2003,21.69,20,3,1.5,CL,1724598889
314,boa vista,2.8197,-60.6733,30.99,62,20,2.06,BR,1724598965
315,obo,5.3998,26.4869,24.5,83,85,1.83,CF,1724598966
316,rancho palos verdes,33.7445,-118.387,20.66,86,20,0.89,US,1724598674
317,corner brook,48.9667,-57.9484,26.44,42,6,4.38,CA,1724598503
318,adrian,41.8975,-84.0372,28.1,75,75,0.0,US,1724598675
319,lodwar,3.1191,35.5973,32.27,32,24,6.38,KE,1724598927
320,hays,30.0502,-98.0336,29.61,77,6,3.25,US,1724598971
321,arawa,-6.2132,155.5367,24.59,93,88,2.51,PG,1724598972
322,zhanibek,49.4167,46.85,27.67,33,82,2.75,KZ,1724598974
323,ulsteinvik,62.3432,5.8487,13.75,84,100,10.73,NO,1724598975
324,hami,42.8,93.45,33.44,21,8,2.28,CN,1724598976
325,boise,43.6135,-116.2035,13.9,76,0,1.54,US,1724598679
326,tolanaro,-25.0319,46.9987,19.99,66,1,7.76,MG,1724598818
327,cantley,53.5,-1.05,17.51,70,100,7.96,GB,1724598979
328,longquan,24.6719,102.1613,19.74,89,68,1.24,CN,1724598980
329,queenstown,-31.8976,26.8753,20.61,10,6,5.41,ZA,1724598981
330,remire-montjoly,4.9167,-52.2667,32.02,58,40,4.12,GF,1724598472
331,nizhniy ingash,56.2,96.53,15.43,91,100,0.54,RU,1724598983
332,pecos,31.4229,-103.4932,29.05,39,0,3.09,US,1724598900
333,ponta delgada,37.7333,-25.6667,26.4,53,20,3.09,PT,1724598985
334,flin flon,54.7682,-101.865,19.91,88,100,4.12,CA,1724598390
335,santo antonio do ica,-3.1022,-67.9397,36.16,37,0,0.63,BR,1724598987
336,callao,-12.0667,-77.15,21.51,88,100,2.57,PE,1724598962
337,melekeok village,7.4957,134.6367,25.31,94,75,0.0,PW,1724598597
338,port alfred,-33.5906,26.891,18.43,81,60,1.34,ZA,1724598517
339,luanda,-8.8368,13.2343,21.96,77,43,7.01,AO,1724598901
340,kohlu,29.8962,69.252,27.58,48,84,1.72,PK,1724598993
341,fuqing,25.725,119.3794,24.76,97,0,0.76,CN,1724598902
342,bodo,67.28,14.405,15.02,73,40,8.75,NO,1724598959
343,magadan,59.5667,150.8,9.5,89,35,1.59,RU,1724598996
344,belo sur tsiribihina,-19.7,44.55,23.42,79,12,3.13,MG,1724598997
345,peniche,39.3558,-9.3811,20.31,78,10,8.94,PT,1724598998
346,floro,61.5996,5.0328,11.98,87,75,10.29,NO,1724598999
347,kapa'a,22.0752,-159.319,25.18,86,75,8.75,US,1724599000
348,bontang,0.1333,117.5,25.47,89,82,4.77,ID,1724599001
349,ataq,14.5377,46.8319,27.39,56,84,6.04,YE,1724599002
350,coquimbo,-29.9533,-71.3436,13.85,82,75,5.66,CL,1724598318
351,lincoln,40.8,-96.667,31.75,73,0,3.6,US,1724598896
352,nakatsugawa,35.4833,137.5,25.06,96,28,1.26,JP,1724599005
353,acarau,-2.8856,-40.12,32.06,47,10,7.32,BR,1724598592
354,yangirabot,40.0254,65.961,28.43,20,3,7.86,UZ,1724599007
355,vadso,70.0744,29.7487,15.09,63,75,6.17,NO,1724598542
356,kirensk,57.7853,108.1119,15.44,69,71,1.35,RU,1724599009
357,taquara,-29.6506,-50.7806,11.04,68,8,4.58,BR,1724599011
358,nanpara,27.8667,81.5,28.33,80,0,3.17,IN,1724599012
359,tshikapa,-6.4167,20.8,38.25,12,6,1.6,CD,1724599013
360,iitti,60.8949,26.3387,24.06,73,2,5.4,FI,1724599014
361,talakan,50.3167,130.3667,14.59,87,68,2.29,RU,1724599015
362,belyayevka,51.3974,56.4096,17.28,73,98,1.14,RU,1724599016
363,namdrik,5.5994,168.1028,28.02,73,99,0.99,MH,1724599017
364,luena,-11.7833,19.9167,30.39,12,7,3.59,AO,1724599018
365,akjoujt,19.6969,-14.4164,39.47,28,0,7.44,MR,1724599019
366,rurrenabaque,-14.4413,-67.5278,17.94,63,100,6.17,BO,1724599020
367,lefkada,38.8275,20.7019,30.95,70,20,6.17,GR,1724599021
368,flekkefjord,58.2971,6.6607,12.32,81,23,6.19,NO,1724599022
369,chibougamau,49.9168,-74.3659,17.79,88,100,2.06,CA,1724598815
370,sao gabriel da cachoeira,-0.1303,-67.0892,27.89,78,40,1.54,BR,1724599025
371,padang,-0.9492,100.3543,25.03,89,65,1.44,ID,1724599026
372,parang,7.3704,124.2697,25.04,89,100,1.4,PH,1724599028
373,dunedin,-45.8742,170.5036,6.59,89,72,0.83,NZ,1724598877
374,holualoa,19.6228,-155.9522,21.91,99,75,4.12,US,1724599030
375,akobo,7.4344,3.9497,27.75,74,75,3.6,NG,1724599031
376,saipan,15.1355,145.701,28.39,83,75,1.54,MP,1724599032
377,al majaridah,19.1236,41.9111,30.22,68,98,2.4,SA,1724599033
378,itoman,26.1247,127.6694,29.01,86,40,1.54,JP,1724599034
379,papao,-17.75,-149.55,22.82,83,100,11.6,PF,1724599035
380,yuzhno-kurilsk,44.0306,145.8556,15.34,78,100,3.86,RU,1724599036
381,sona,45.4388,10.8255,33.51,36,0,3.6,IT,1724599037
382,terrace,54.5163,-128.6035,14.95,67,100,9.26,CA,1724599005
383,bakaly,55.1789,53.8028,19.14,73,94,1.64,RU,1724599039
384,gasa,31.5,34.4667,29.42,60,0,5.46,PS,1724599040
385,santa cruz,-17.8,-63.1667,17.7,41,100,13.38,BO,1724599041
386,port elizabeth,-33.918,25.5701,18.16,78,0,4.63,ZA,1724599043
387,chonchi,-42.6128,-73.8092,8.95,78,100,2.41,CL,1724598616
388,ahmadpur sial,30.6754,71.7483,38.83,26,85,2.8,PK,1724599045
389,iznik,40.4286,29.7211,31.86,41,4,6.33,TR,1724599047
390,alice town,25.7167,-79.3,28.57,76,61,5.14,BS,1724599048
391,qaqortoq,60.7167,-46.0333,5.93,86,33,2.25,GL,1724599049
392,opuwo,-18.0607,13.84,31.36,8,0,3.36,NA,1724599050
393,chenaran,36.6455,59.1212,27.98,19,0,4.33,IR,1724599051
394,yeniseysk,58.4497,92.1703,15.24,96,47,1.55,RU,1724599052
395,san francisco,37.7749,-122.4194,17.68,87,20,1.34,US,1724598891
396,vanimo,-2.6741,141.3028,26.01,91,100,1.68,PG,1724599054
397,boende,-0.2167,20.8667,22.37,94,92,1.78,CD,1724599055
398,gamba,-2.65,10.0,25.36,67,69,4.58,GA,1724599056
399,egilsstadir,65.2653,-14.3948,9.95,71,75,7.72,IS,1724598910
400,dahanu,19.9667,72.7333,26.2,87,100,9.9,IN,1724599058
401,santona,43.4439,-3.4576,22.96,57,79,3.45,ES,1724599059
402,kuala tungkal,-0.8167,103.4667,27.13,74,99,2.61,ID,1724599060
403,cedar city,37.6775,-113.0619,18.92,25,0,8.75,US,1724598778
404,tuy hoa,13.0833,109.3,25.34,88,100,1.92,VN,1724599062
405,coahuayana de hidalgo,18.7,-103.6583,28.49,67,51,0.6,MX,1724598485
406,manta,-0.95,-80.7333,26.88,65,20,2.57,EC,1724598836
407,kingston,17.997,-76.7936,32.31,74,40,2.57,JM,1724598240
408,kerikeri,-35.2268,173.9474,8.5,94,41,1.29,NZ,1724599068
409,pimentel,-6.8367,-79.9342,18.16,82,100,4.63,PE,1724599069
410,prince rupert,54.3161,-130.3201,12.05,99,100,11.83,CA,1724599070
411,haapajarvi,63.75,25.3333,23.6,55,98,7.68,FI,1724599071
412,ginir,7.1333,40.7,18.48,63,100,5.37,ET,1724599072
413,kuta,-8.7233,115.1723,25.97,89,20,5.66,ID,1724599073
414,zeya,53.75,127.2667,16.31,77,100,1.73,RU,1724599074
415,bomi,7.2461,-11.5258,27.3,75,97,4.39,SL,1724599075
416,alto piquiri,-24.0281,-53.4406,14.08,30,98,6.29,BR,1724599077
417,mbanza-ngungu,-5.25,14.8667,33.2,27,34,2.94,CD,1724599078
418,gigante,2.3868,-75.5453,26.67,56,96,1.31,CO,1724599079
419,nusaybin,37.0778,41.2178,35.06,23,0,5.65,TR,1724599081
420,barra de santo antonio,-9.4047,-35.5072,25.85,61,30,5.54,BR,1724599082
421,kyzyl,51.7,94.45,23.88,42,100,0.58,RU,1724599083
422,kapuskasing,49.4169,-82.4331,23.12,60,100,1.47,CA,1724598831
423,oulainen,64.2667,24.8,21.58,69,96,6.42,FI,1724599085
424,saint john,45.2727,-66.0677,26.57,53,20,1.54,CA,1724598955
425,arauca,7.0847,-70.7591,24.98,88,75,3.09,CO,1724599087
426,hanceville,34.0607,-86.7675,28.9,45,0,2.7,US,1724599088
427,markovo,57.3206,107.0881,15.64,70,73,1.42,RU,1724599089
428,salekhard,66.53,66.6019,16.64,69,97,2.62,RU,1724598958
429,tot'ma,59.9747,42.7642,20.5,64,3,1.4,RU,1724598814
430,sai buri,6.7013,101.6168,26.09,89,100,2.72,TH,1724599092
431,grants pass,42.439,-123.3284,11.17,91,100,0.0,US,1724599093
432,aweil,8.7682,27.4002,26.69,84,96,2.27,SS,1724599094
433,recani,31.2846,-4.2688,38.89,15,19,6.52,MA,1724599096
434,al kharijah,25.4514,30.5464,40.13,14,5,4.86,EG,1724599098
435,novyy turtkul',41.55,61.0167,27.36,16,99,6.07,UZ,1724599099
436,plainview,40.7765,-73.4673,28.16,61,0,0.89,US,1724599100
437,sandnessjoen,66.0217,12.6316,12.06,82,75,9.77,NO,1724599040
438,yarmouth,41.7057,-70.2286,26.19,74,0,2.57,US,1724599102
439,pazaryeri,39.994,29.9042,25.57,44,80,6.31,TR,1724599103
440,colchani,-20.3,-66.9333,10.21,19,0,4.95,BO,1724599104
441,aixe-sur-vienne,45.7986,1.1388,22.21,40,0,2.06,FR,1724599105
442,karungdong,5.8844,121.263,27.06,84,100,2.41,PH,1724599106
443,aiquile,-18.2041,-65.1807,8.12,73,100,2.35,BO,1724599107
444,mamuju,-2.6748,118.8885,25.44,88,68,1.99,ID,1724598962
445,pacific grove,36.6177,-121.9166,16.9,88,0,1.54,US,1724598870
446,maymana,35.9214,64.7836,29.71,19,0,3.34,AF,1724599110
447,belmonte,-15.8631,-38.8828,26.49,57,26,4.18,BR,1724599111
448,rikaze,29.25,88.8833,14.28,48,100,3.55,CN,1724598995
449,los arabos,22.7281,-80.7214,30.22,64,100,4.98,CU,1724599113
450,novodvinsk,64.4165,40.8122,20.86,45,17,2.01,RU,1724599115
451,petauke,-14.2426,31.3253,26.18,22,5,3.84,ZM,1724599116
452,kiunga,-6.1219,141.2906,23.08,99,100,1.95,PG,1724599117
453,nantucket,41.2835,-70.0995,23.06,83,0,4.63,US,1724599118
454,isiro,2.7739,27.616,22.81,96,100,0.42,CD,1724599119
455,bojia,26.4672,111.9681,27.76,74,1,1.07,CN,1724599120
456,alo,6.5486,4.2686,25.13,88,100,3.99,NG,1724599121
457,vrbas,45.5714,19.6408,37.46,12,71,5.41,RS,1724599122
458,codrington,-38.2667,141.9667,12.97,80,91,9.56,AU,1724599123
459,tame,6.461,-71.73,22.12,95,100,0.88,CO,1724599124
460,vrangel',42.7297,133.0839,19.73,88,97,6.16,RU,1724599125
461,chiquinquira,5.6164,-73.8175,17.25,55,100,1.15,CO,1724599126
462,mount gambier,-37.8333,140.7667,12.21,88,72,6.11,AU,1724599127
463,cabedelo,-6.9811,-34.8339,28.37,71,30,8.21,BR,1724599128
464,igarka,67.4667,86.5833,10.72,80,22,3.93,RU,1724599034
465,nishinoomote,30.7333,131.0,28.27,81,12,5.55,JP,1724599130
466,emerald,-23.5333,148.1667,15.75,79,0,3.5,AU,1724599132
467,sabak bernam,3.7698,100.9879,23.66,95,100,1.56,MY,1724599134
468,kaka,37.3482,59.6143,34.34,14,0,2.43,TM,1724599135
469,meulaboh,4.1363,96.1285,24.64,89,100,2.13,ID,1724599136
470,port augusta,-32.5,137.7667,11.52,72,0,4.0,AU,1724599137
471,kill devil hills,36.0307,-75.676,26.1,76,75,6.69,US,1724598896
472,homer,59.6425,-151.5483,9.94,90,75,3.58,US,1724599139
473,ambodifotatra,-16.9833,49.85,22.61,64,65,9.46,MG,1724599140
474,esperanza,19.5847,-70.9849,31.28,67,0,1.79,DO,1724599141
475,chiredzi,-21.05,31.6667,28.26,21,0,3.71,ZW,1724598618
476,ad dabbah,18.05,30.95,37.36,30,79,3.32,SD,1724599143
477,santa terezinha,-29.9002,-50.0904,12.63,52,3,8.64,BR,1724598605
478,portland,45.5234,-122.6762,15.69,91,75,1.34,US,1724598902
479,sonqor,34.7837,47.6004,31.05,14,44,4.56,IR,1724599146
480,cobija,-11.0267,-68.7692,23.1,49,75,7.2,BO,1724599148
481,natal,-5.795,-35.2094,29.36,54,40,9.26,BR,1724599149
482,buenaventura,3.8801,-77.0312,25.32,91,100,1.32,CO,1724598912
483,vikulovo,56.8167,70.6107,11.9,91,72,3.8,RU,1724598986
484,ocean shores,46.9737,-124.1563,15.53,97,100,2.57,US,1724599021
485,ugoofaaru,5.6667,73.0,27.79,76,100,3.73,MV,1724599153
486,nikol'sk,53.7189,46.0712,21.52,61,34,2.4,RU,1724599154
487,pochinok,54.4068,32.4407,25.52,59,0,0.87,RU,1724599155
488,wielen,52.8946,16.1714,22.96,43,97,4.8,PL,1724599156
489,colonia,50.9333,6.95,24.42,36,4,0.89,DE,1724598941
490,luis correia,-2.8792,-41.6669,33.0,52,0,6.17,BR,1724599158
491,sabang,5.8933,95.3214,28.12,69,100,2.91,ID,1724599159
492,komadi,47.0,21.5,36.86,13,39,2.38,HU,1724599160
493,acoyapa,11.9703,-85.1711,29.05,73,48,3.12,NI,1724599161
494,aromashevo,56.8602,68.6375,12.18,91,98,3.84,RU,1724599162
495,calvinia,-31.4707,19.776,16.58,25,0,5.39,ZA,1724599163
496,wynyard,-41.0,145.7167,10.52,93,71,4.29,AU,1724599164
497,kudahuvadhoo,2.6708,72.8944,28.24,74,91,4.48,MV,1724599020
498,ola,59.5833,151.2833,10.25,84,42,1.01,RU,1724599168
499,las khorey,11.1595,48.1967,31.67,62,49,1.42,SO,1724599169
500,mana,5.6592,-53.7767,30.64,60,24,4.98,GF,1724599170
501,noyabrsk,63.1994,75.4507,13.24,65,64,4.55,RU,1724599171
502,cidade velha,14.9167,-23.6167,30.26,54,75,10.8,CV,1724599172
503,saint-paul,-21.0096,55.2707,21.11,88,59,0.35,RE,1724599173
504,kone,-21.0595,164.8658,18.43,85,10,1.49,NC,1724598936
505,kruisfontein,-34.0033,24.7314,15.73,64,1,5.15,ZA,1724599175
506,princeville,45.7668,-61.2985,27.01,64,0,2.57,CA,1724599176
507,urengoy,65.9667,78.3667,13.21,65,54,3.3,RU,1724599177
508,kristiansund,63.1115,7.732,15.36,55,75,5.66,NO,1724599178
509,shalqar,47.8333,59.6,25.46,24,2,3.14,KZ,1724599179
510,la'ie,21.6477,-157.9253,25.66,83,89,4.47,US,1724599180
511,archangelos,36.2149,28.1149,30.99,52,0,2.92,GR,1724599181
512,glace bay,46.1969,-59.957,27.87,69,87,0.5,CA,1724599182
513,kuhmo,64.1333,29.5167,20.93,51,8,8.26,FI,1724599184
514,sao vicente,-23.9631,-46.3919,15.55,26,100,2.57,BR,1724599185
515,peterhead,57.5058,-1.7981,11.94,93,100,9.23,GB,1724599186
516,lensk,60.7253,114.9278,12.45,89,36,1.88,RU,1724599187
517,hammerfest,70.6634,23.6821,14.25,72,75,4.12,NO,1724599188
518,bel ombre,-4.6167,55.4167,26.91,83,75,5.66,SC,1724598820
519,suva,-18.1416,178.4415,20.71,100,100,3.6,FJ,1724599190
520,quellon,-43.1167,-73.6167,7.98,85,100,6.08,CL,1724599191
521,ouesso,1.6136,16.0517,30.23,51,92,0.95,CG,1724599192
522,wajir,1.7471,40.0573,32.41,31,56,7.36,KE,1724599193
523,alvorada,-12.48,-49.1247,37.63,14,0,2.04,BR,1724599194
524,bonthe,7.5264,-12.505,26.52,80,100,6.22,SL,1724599195
525,buka,40.8108,69.1986,25.51,16,4,5.44,UZ,1724599196
526,nyurba,63.2842,118.3319,11.88,85,88,2.59,RU,1724599197
527,sicuani,-14.2694,-71.2261,14.36,45,12,2.34,PE,1724599199
528,carutapera,-1.195,-46.02,32.61,48,57,4.6,BR,1724598916
529,bukene,-4.2333,32.8833,29.42,24,24,2.35,TZ,1724599201
530,megion,61.0296,76.1136,13.01,85,100,5.65,RU,1724599202
531,borogontsy,62.6683,131.1683,14.58,97,100,3.69,RU,1724599203
532,lycksele,64.5954,18.6735,16.93,67,20,4.12,SE,1724599204
533,ta`u,-14.2336,-169.5144,26.39,84,92,9.85,AS,1724599205
534,pionerskiy,54.9508,20.2275,20.91,81,16,10.95,RU,1724599087
535,geraldton,-28.7667,114.6,10.23,93,35,1.54,AU,1724598833
536,dumka,24.2667,87.25,26.49,87,35,2.35,IN,1724599208
537,mata-utu,-13.2816,-176.1745,26.98,77,100,8.84,WF,1724599209
538,sumenep,-7.0167,113.8667,26.3,79,81,3.52,ID,1724599210
539,inverloch,-38.6333,145.7167,11.45,85,76,9.54,AU,1724599211
540,kasempa,-13.4584,25.8338,28.31,17,9,3.71,ZM,1724599212
541,ghadamis,30.1337,9.5007,37.99,16,0,5.59,LY,1724599213
542,namibe,-15.1961,12.1522,21.29,69,28,3.38,AO,1724599214
543,genhe,50.7833,121.5167,12.33,98,100,1.6,CN,1724599215
544,lompoc,34.6391,-120.4579,18.41,100,20,2.06,US,1724599216
545,tommot,58.9564,126.2925,11.82,96,86,1.65,RU,1724599218
546,twon-brass,4.3151,6.2418,25.9,81,100,5.97,NG,1724599219
547,mezzouna,34.5776,9.8419,35.87,28,0,8.36,TN,1724599220
548,tosontsengel,48.7567,98.2839,15.2,49,1,0.79,MN,1724599222
549,happy valley-goose bay,53.3168,-60.3315,26.17,41,20,2.06,CA,1724599223
550,sangmelima,2.9333,11.9833,23.62,90,100,2.32,CM,1724599224
551,shimoda,34.6667,138.95,26.36,83,96,1.92,JP,1724599225
552,olyokminsk,60.3736,120.4264,12.76,94,14,2.11,RU,1724599226
553,huangshan,29.7114,118.3125,27.94,70,90,0.59,CN,1724599227
554,senador pompeu,-5.5881,-39.3717,34.34,29,5,2.99,BR,1724599228
555,quang ngai,15.1167,108.8,25.35,86,33,1.97,VN,1724599229
556,callaway,30.153,-85.5699,29.99,72,20,4.63,US,1724599230
557,island harbour,50.724,-1.2758,19.85,67,39,4.92,GB,1724599231
558,tokar,18.4254,37.729,38.85,29,8,7.09,SD,1724599232
559,nogliki,51.8333,143.1667,12.0,81,100,1.99,RU,1724598902
560,north bend,43.4065,-124.2243,12.31,78,16,1.58,US,1724599235
561,saynshand,44.8824,110.1163,22.27,36,28,1.36,MN,1724599236
562,kenai,60.5544,-151.2583,9.52,95,100,2.06,US,1724599056
563,pathein,16.7833,94.7333,25.66,87,100,2.04,MM,1724599238
